[
    {
        "name":  "Axpe Imoveis",
        "address":  "Rua Aspicuelta, 245",
        "bairro":  "Pinheiros",
        "tel":  "(11) 3032-1311",
        "lat":  -23.5569198,
        "lng":  -46.6877573,
        "found":  true
    },
    {
        "name":  "Madah Imoveis",
        "address":  "Rua Purpurina, 131",
        "bairro":  "Pinheiros",
        "tel":  "(11) 3031-6885",
        "lat":  -23.55326,
        "lng":  -46.6896395,
        "found":  true
    },
    {
        "name":  "Zimbro Imoveis",
        "address":  "Rua Mourato Coelho, 1261",
        "bairro":  "Pinheiros",
        "tel":  "(11) 3034-2122",
        "lat":  -23.5627352,
        "lng":  -46.6881404,
        "found":  true
    },
    {
        "name":  "Next Pinheiros",
        "address":  "Rua Teodoro Sampaio, 2035",
        "bairro":  "Pinheiros",
        "tel":  "(11) 3062-8000",
        "lat":  -23.5627524,
        "lng":  -46.6861484,
        "found":  true
    },
    {
        "name":  "Sh Prime Pinheiros",
        "address":  "Rua dos Pinheiros, 1140",
        "bairro":  "Pinheiros",
        "tel":  "(11) 3093-5500",
        "lat":  -23.4446092,
        "lng":  -46.5784645,
        "found":  true
    },
    {
        "name":  "Lopes Prime Pinheiros",
        "address":  "Rua Fradique Coutinho, 1162",
        "bairro":  "Pinheiros",
        "tel":  "(11) 3039-8000",
        "lat":  -23.5638974,
        "lng":  -46.6859616,
        "found":  true
    },
    {
        "name":  "Remax Unique",
        "address":  "Rua Cardeal Arcoverde, 1749",
        "bairro":  "Pinheiros",
        "tel":  "(11) 3031-0100",
        "lat":  -23.5616064,
        "lng":  -46.6881428,
        "found":  true
    },
    {
        "name":  "Lello Imoveis Pinheiros",
        "address":  "Rua dos Pinheiros, 382",
        "bairro":  "Pinheiros",
        "tel":  "(11) 3811-1000",
        "lat":  -23.5651164,
        "lng":  -46.6818784,
        "found":  true
    },
    {
        "name":  "Coelho da Fonseca Pinheiros",
        "address":  "Avenida Brigadeiro Faria Lima, 1451",
        "bairro":  "Pinheiros",
        "tel":  "(11) 3811-2000",
        "lat":  -23.442439,
        "lng":  -46.5213244,
        "found":  true
    },
    {
        "name":  "Bamberg Imoveis de Elite",
        "address":  "Rua Mourato Coelho, 946",
        "bairro":  "Pinheiros",
        "tel":  "(11) 3038-1200",
        "lat":  -23.5568994,
        "lng":  -46.6922463,
        "found":  true
    },
    {
        "name":  "Mello Imoveis Pinheiros",
        "address":  "Rua Pinheiros, 642",
        "bairro":  "Pinheiros",
        "tel":  "(11) 3081-3311",
        "lat":  -23.6696024,
        "lng":  -46.5851909,
        "found":  true
    },
    {
        "name":  "Pinheiros S/A",
        "address":  "Rua Artur de Azevedo, 1520",
        "bairro":  "Pinheiros",
        "tel":  "(11) 3064-9000",
        "lat":  -23.5611378,
        "lng":  -46.6792157,
        "found":  true
    },
    {
        "name":  "Rocha Cunha Imoveis",
        "address":  "Rua Vanderlei, 1555",
        "bairro":  "Pompeia",
        "tel":  "(11) 3675-1170",
        "lat":  -23.5362828,
        "lng":  -46.6807886,
        "found":  true
    },
    {
        "name":  "YK Private",
        "address":  "Rua Venancio Aires, 433",
        "bairro":  "Pompeia",
        "tel":  "(11) 5026-9329",
        "lat":  -23.5285262,
        "lng":  -46.6819332,
        "found":  true
    },
    {
        "name":  "Abrahao Imoveis",
        "address":  "Rua Diana, 515",
        "bairro":  "Pompeia",
        "tel":  "(11) 3864-1044",
        "lat":  -23.5330125,
        "lng":  -46.6810914,
        "found":  true
    },
    {
        "name":  "Karisma Imoveis",
        "address":  "Rua Vanderlei, 1493",
        "bairro":  "Pompeia",
        "tel":  "(11) 3675-6111",
        "lat":  -23.5366294,
        "lng":  -46.6802738,
        "found":  true
    },
    {
        "name":  "Local Imoveis Pompeia",
        "address":  "Avenida Pompeia, 1289",
        "bairro":  "Pompeia",
        "tel":  "(11) 3868-9000",
        "lat":  -23.5346134,
        "lng":  -46.6879262,
        "found":  true
    },
    {
        "name":  "Sh Prime Pompeia",
        "address":  "Avenida Pompeia, 1610",
        "bairro":  "Pompeia",
        "tel":  "(11) 3677-1000",
        "lat":  -23.5375191,
        "lng":  -46.6903744,
        "found":  true
    },
    {
        "name":  "Remax Liberty",
        "address":  "Rua Cotoxo, 611",
        "bairro":  "Pompeia",
        "tel":  "(11) 3871-3333",
        "lat":  -23.5325241,
        "lng":  -46.6848883,
        "found":  true
    },
    {
        "name":  "Lello Pompeia",
        "address":  "Avenida Pompeia, 1825",
        "bairro":  "Pompeia",
        "tel":  "(11) 3674-7000",
        "lat":  -23.5352324,
        "lng":  -46.6883681,
        "found":  true
    },
    {
        "name":  "Lopes One Pompeia",
        "address":  "Avenida Pompeia, 954",
        "bairro":  "Pompeia",
        "tel":  "(11) 3803-7100",
        "lat":  -23.5325832,
        "lng":  -46.6868661,
        "found":  true
    },
    {
        "name":  "Imobiliaria Romano",
        "address":  "Rua Venancio Aires, 850",
        "bairro":  "Pompeia",
        "tel":  "(11) 3672-4000",
        "lat":  -23.5262509,
        "lng":  -46.6851671,
        "found":  true
    },
    {
        "name":  "Pompeia Imoveis",
        "address":  "Avenida Pompeia, 1118",
        "bairro":  "Pompeia",
        "tel":  "(11) 3862-2022",
        "lat":  -23.5338109,
        "lng":  -46.6877579,
        "found":  true
    },
    {
        "name":  "Nova Romano",
        "address":  "Rua Desembargador do Vale, 612",
        "bairro":  "Pompeia",
        "tel":  "(11) 3873-1011",
        "lat":  -23.5307534,
        "lng":  -46.6866342,
        "found":  true
    },
    {
        "name":  "Sh Prime Perdizes",
        "address":  "Rua Cardoso de Almeida, 1170",
        "bairro":  "Perdizes",
        "tel":  "(11) 3677-1010",
        "lat":  -23.540611,
        "lng":  -46.6704169,
        "found":  true
    },
    {
        "name":  "Lello Imoveis Perdizes",
        "address":  "Rua Cardoso de Almeida, 921",
        "bairro":  "Perdizes",
        "tel":  "(11) 3874-3000",
        "lat":  -23.5387297,
        "lng":  -46.6689623,
        "found":  true
    },
    {
        "name":  "Lopes Exclusive Perdizes",
        "address":  "Rua Tuim, 452",
        "bairro":  "Perdizes",
        "tel":  "(11) 3868-8000",
        "lat":  -23.600807,
        "lng":  -46.6695073,
        "found":  true
    },
    {
        "name":  "Remax Gold Perdizes",
        "address":  "Rua Itapicuru, 345",
        "bairro":  "Perdizes",
        "tel":  "(11) 3872-9000",
        "lat":  -23.5358453,
        "lng":  -46.6675845,
        "found":  true
    },
    {
        "name":  "Coelho da Fonseca Perdizes",
        "address":  "Rua Cardoso de Almeida, 1500",
        "bairro":  "Perdizes",
        "tel":  "(11) 3670-2000",
        "lat":  -23.5429701,
        "lng":  -46.6723314,
        "found":  true
    },
    {
        "name":  "Mario Biseo Perdizes",
        "address":  "Rua Turiassu, 659",
        "bairro":  "Perdizes",
        "tel":  "(11) 3871-9200",
        "lat":  -23.5330689,
        "lng":  -46.6694861,
        "found":  true
    },
    {
        "name":  "Graziella dos Imoveis Perdizes",
        "address":  "Rua Doutor Homem de Melo, 450",
        "bairro":  "Perdizes",
        "tel":  "(11) 3864-5151",
        "lat":  -23.5366864,
        "lng":  -46.6690766,
        "found":  true
    },
    {
        "name":  "Perdizes Imoveis",
        "address":  "Rua Bartira, 412",
        "bairro":  "Perdizes",
        "tel":  "(11) 3673-4040",
        "lat":  -23.5384087,
        "lng":  -46.6720388,
        "found":  true
    },
    {
        "name":  "Century 21 Perdizes",
        "address":  "Rua Itapicuru, 730",
        "bairro":  "Perdizes",
        "tel":  "(11) 3865-8000",
        "lat":  -23.5337891,
        "lng":  -46.6706497,
        "found":  true
    },
    {
        "name":  "Imobiliaria Turiassu",
        "address":  "Rua Turiassu, 1143",
        "bairro":  "Perdizes",
        "tel":  "(11) 3672-5555",
        "lat":  -23.5317474,
        "lng":  -46.6740219,
        "found":  true
    },
    {
        "name":  "Imoveis Perdizes Alto Padrao",
        "address":  "Rua Monte Alegre, 610",
        "bairro":  "Perdizes",
        "tel":  "(11) 3862-5000",
        "lat":  -23.5357582,
        "lng":  -46.668613,
        "found":  true
    },
    {
        "name":  "Elite Perdizes",
        "address":  "Rua Capital Federal, 215",
        "bairro":  "Perdizes",
        "tel":  "(11) 3875-1020",
        "lat":  -23.5419504,
        "lng":  -46.6833598,
        "found":  true
    },
    {
        "name":  "Axpe Vila Madalena",
        "address":  "Rua Fradique Coutinho, 1395",
        "bairro":  "Vila Madalena",
        "tel":  "(11) 3032-1311",
        "lat":  -23.5557034,
        "lng":  -46.6918244,
        "found":  true
    },
    {
        "name":  "Madah Imoveis Vila Madalena",
        "address":  "Rua Purpurina, 131",
        "bairro":  "Vila Madalena",
        "tel":  "(11) 3031-6885",
        "lat":  -23.55326,
        "lng":  -46.6896395,
        "found":  true
    },
    {
        "name":  "Zimbro Vila Madalena",
        "address":  "Rua Mourato Coelho, 1261",
        "bairro":  "Vila Madalena",
        "tel":  "(11) 3034-2122",
        "lat":  -23.5627352,
        "lng":  -46.6881404,
        "found":  true
    },
    {
        "name":  "Anglo Americana",
        "address":  "Rua Pedroso Alvarenga, 1177",
        "bairro":  "Vila Madalena",
        "tel":  "(11) 3816-3000",
        "lat":  -23.5827089,
        "lng":  -46.6816003,
        "found":  true
    },
    {
        "name":  "Remax Destiny",
        "address":  "Rua Harmonia, 810",
        "bairro":  "Vila Madalena",
        "tel":  "(11) 3031-5050",
        "lat":  -23.65803,
        "lng":  -46.5705806,
        "found":  true
    },
    {
        "name":  "Lopes One Vila Madalena",
        "address":  "Rua Heitor Penteado, 1420",
        "bairro":  "Vila Madalena",
        "tel":  "(11) 3674-8000",
        "lat":  -23.5458989,
        "lng":  -46.6915675,
        "found":  true
    },
    {
        "name":  "Sh Prime Vila Madalena",
        "address":  "Rua Wisard, 415",
        "bairro":  "Vila Madalena",
        "tel":  "(11) 3093-5555",
        "lat":  -23.5553476,
        "lng":  -46.6897408,
        "found":  true
    },
    {
        "name":  "Lello Vila Madalena",
        "address":  "Rua Harmonia, 320",
        "bairro":  "Vila Madalena",
        "tel":  "(11) 3811-1050",
        "lat":  -23.5487569,
        "lng":  -46.691777,
        "found":  true
    },
    {
        "name":  "Vila Madalena Imoveis Premium",
        "address":  "Rua Girassol, 612",
        "bairro":  "Vila Madalena",
        "tel":  "(11) 3032-9000",
        "lat":  -23.5536728,
        "lng":  -46.6903667,
        "found":  true
    },
    {
        "name":  "Tarcha Imoveis",
        "address":  "Rua Fradique Coutinho, 1202",
        "bairro":  "Vila Madalena",
        "tel":  "(11) 3815-4322",
        "lat":  -23.5516588,
        "lng":  -46.6943828,
        "found":  true
    },
    {
        "name":  "Bossa Nova Sothebys",
        "address":  "Rua Estados Unidos, 1152",
        "bairro":  "Vila Madalena",
        "tel":  "(11) 3061-0000",
        "lat":  -23.5689585,
        "lng":  -46.6661315,
        "found":  true
    },
    {
        "name":  "Casa Madalena",
        "address":  "Rua Aspicuelta, 340",
        "bairro":  "Vila Madalena",
        "tel":  "(11) 3031-4040",
        "lat":  -23.5563954,
        "lng":  -46.6874672,
        "found":  true
    },
    {
        "name":  "Local Imoveis Leopoldina",
        "address":  "Rua Carlos Weber, 1452",
        "bairro":  "Vila Leopoldina",
        "tel":  "(11) 3646-8000",
        "lat":  -23.5322285,
        "lng":  -46.726472,
        "found":  true
    },
    {
        "name":  "Sh Prime Vila Leopoldina",
        "address":  "Rua Carlos Weber, 715",
        "bairro":  "Vila Leopoldina",
        "tel":  "(11) 3648-5000",
        "lat":  -23.5271913,
        "lng":  -46.7311616,
        "found":  true
    },
    {
        "name":  "Lello Vila Leopoldina",
        "address":  "Avenida Imperatriz Leopoldina, 1120",
        "bairro":  "Vila Leopoldina",
        "tel":  "(11) 3643-4000",
        "lat":  -23.5314348,
        "lng":  -46.7304651,
        "found":  true
    },
    {
        "name":  "Lopes One Vila Leopoldina",
        "address":  "Rua Carlos Weber, 1190",
        "bairro":  "Vila Leopoldina",
        "tel":  "(11) 3649-7000",
        "lat":  -23.5304431,
        "lng":  -46.7281569,
        "found":  true
    },
    {
        "name":  "Remax Japi",
        "address":  "Rua Carlos Weber, 532",
        "bairro":  "Vila Leopoldina",
        "tel":  "(11) 3831-2000",
        "lat":  -23.5259467,
        "lng":  -46.7323314,
        "found":  true
    },
    {
        "name":  "Coelho da Fonseca Leopoldina",
        "address":  "Rua Carlos Weber, 1633",
        "bairro":  "Vila Leopoldina",
        "tel":  "(11) 3643-2000",
        "lat":  -23.5334313,
        "lng":  -46.7253388,
        "found":  true
    },
    {
        "name":  "Leopoldina Imoveis",
        "address":  "Avenida Imperatriz Leopoldina, 957",
        "bairro":  "Vila Leopoldina",
        "tel":  "(11) 3831-1011",
        "lat":  -23.5301056,
        "lng":  -46.7312749,
        "found":  true
    },
    {
        "name":  "Weber Imoveis",
        "address":  "Rua Carlos Weber, 810",
        "bairro":  "Vila Leopoldina",
        "tel":  "(11) 3641-3030",
        "lat":  -23.5278382,
        "lng":  -46.73056,
        "found":  true
    },
    {
        "name":  "Mbras Imoveis Leopoldina",
        "address":  "Avenida Brigadeiro Faria Lima, 2012",
        "bairro":  "Vila Leopoldina",
        "tel":  "(11) 3034-3111",
        "lat":  -23.5749535,
        "lng":  -46.6887537,
        "found":  true
    },
    {
        "name":  "Nova Opcao Leopoldina",
        "address":  "Avenida Imperatriz Leopoldina, 1222",
        "bairro":  "Vila Leopoldina",
        "tel":  "(11) 3645-1020",
        "lat":  -23.5321338,
        "lng":  -46.7298106,
        "found":  true
    },
    {
        "name":  "Prime Choice Leopoldina",
        "address":  "Rua Clelia, 2200",
        "bairro":  "Vila Leopoldina",
        "tel":  "(11) 3832-4000",
        "lat":  -23.5247354,
        "lng":  -46.7036039,
        "found":  true
    },
    {
        "name":  "Direct Imoveis Leopoldina",
        "address":  "Rua Schilling, 412",
        "bairro":  "Vila Leopoldina",
        "tel":  "(11) 3641-8080",
        "lat":  -23.53045,
        "lng":  -46.7285146,
        "found":  true
    },
    {
        "name":  "Itaim Ville",
        "address":  "Rua Pedroso Alvarenga, 328",
        "bairro":  "Itaim Bibi",
        "tel":  "(11) 3588-0808",
        "lat":  -23.580564,
        "lng":  -46.6737017,
        "found":  true
    },
    {
        "name":  "Mello Imoveis Itaim",
        "address":  "Rua Tabapua, 627",
        "bairro":  "Itaim Bibi",
        "tel":  "(11) 3167-3311",
        "lat":  -23.5833859,
        "lng":  -46.6767278,
        "found":  true
    },
    {
        "name":  "Special Properties",
        "address":  "Rua Joaquim Floriano, 466",
        "bairro":  "Itaim Bibi",
        "tel":  "(11) 3168-5000",
        "lat":  -23.5845652,
        "lng":  -46.6745028,
        "found":  true
    },
    {
        "name":  "Lopes Prime Itaim",
        "address":  "Rua Joaquim Floriano, 1060",
        "bairro":  "Itaim Bibi",
        "tel":  "(11) 3165-8000",
        "lat":  -23.5860929,
        "lng":  -46.6802899,
        "found":  true
    },
    {
        "name":  "Sh Prime Itaim",
        "address":  "Rua Tabapua, 1125",
        "bairro":  "Itaim Bibi",
        "tel":  "(11) 3074-1000",
        "lat":  -23.5846771,
        "lng":  -46.6814502,
        "found":  true
    },
    {
        "name":  "Coelho da Fonseca Itaim",
        "address":  "Rua Pedroso Alvarenga, 900",
        "bairro":  "Itaim Bibi",
        "tel":  "(11) 3160-2000",
        "lat":  -23.5818424,
        "lng":  -46.679341,
        "found":  true
    },
    {
        "name":  "Lello Imoveis Itaim",
        "address":  "Rua Pedroso Alvarenga, 513",
        "bairro":  "Itaim Bibi",
        "tel":  "(11) 3078-3000",
        "lat":  -23.5810422,
        "lng":  -46.6754653,
        "found":  true
    },
    {
        "name":  "Remax Master",
        "address":  "Rua Tabapua, 1450",
        "bairro":  "Itaim Bibi",
        "tel":  "(11) 3071-2020",
        "lat":  -23.5855697,
        "lng":  -46.6844249,
        "found":  true
    },
    {
        "name":  "Graziella dos Imoveis Itaim",
        "address":  "Rua Joaquim Floriano, 871",
        "bairro":  "Itaim Bibi",
        "tel":  "(11) 3079-5151",
        "lat":  -23.5835294,
        "lng":  -46.6709349,
        "found":  true
    },
    {
        "name":  "JLL Corporate",
        "address":  "Avenida Brigadeiro Faria Lima, 3477",
        "bairro":  "Itaim Bibi",
        "tel":  "(11) 3043-6000",
        "lat":  -23.5863292,
        "lng":  -46.6817127,
        "found":  true
    },
    {
        "name":  "Binswanger Imoveis",
        "address":  "Rua Tabapua, 474",
        "bairro":  "Itaim Bibi",
        "tel":  "(11) 3073-1000",
        "lat":  -23.5829854,
        "lng":  -46.6752575,
        "found":  true
    },
    {
        "name":  "Taylor Real Estate",
        "address":  "Rua Pedroso Alvarenga, 1245",
        "bairro":  "Itaim Bibi",
        "tel":  "(11) 3074-2200",
        "lat":  -23.582878,
        "lng":  -46.6822273,
        "found":  true
    },
    {
        "name":  "Vertiza Imoveis",
        "address":  "Rua Casa do Ator, 1117",
        "bairro":  "Vila Olimpia",
        "tel":  "(11) 94027-7000",
        "lat":  -23.5966906,
        "lng":  -46.6837211,
        "found":  true
    },
    {
        "name":  "Sh Prime Vila Olimpia",
        "address":  "Rua Olimpiadas, 200",
        "bairro":  "Vila Olimpia",
        "tel":  "(11) 3045-5000",
        "lat":  -23.5955879,
        "lng":  -46.68477,
        "found":  true
    },
    {
        "name":  "Lopes One Vila Olimpia",
        "address":  "Rua Ramos Batista, 152",
        "bairro":  "Vila Olimpia",
        "tel":  "(11) 3049-9000",
        "lat":  -23.591985,
        "lng":  -46.6845452,
        "found":  true
    },
    {
        "name":  "Remax Action",
        "address":  "Rua Gomes de Carvalho, 1329",
        "bairro":  "Vila Olimpia",
        "tel":  "(11) 3845-1010",
        "lat":  -23.6011325,
        "lng":  -46.6765251,
        "found":  true
    },
    {
        "name":  "Lello Vila Olimpia",
        "address":  "Rua Alvorada, 1240",
        "bairro":  "Vila Olimpia",
        "tel":  "(11) 3848-2000",
        "lat":  -23.5961018,
        "lng":  -46.6825408,
        "found":  true
    },
    {
        "name":  "Coelho da Fonseca Faria Lima",
        "address":  "Avenida Brigadeiro Faria Lima, 3900",
        "bairro":  "Vila Olimpia",
        "tel":  "(11) 3160-2000",
        "lat":  -23.5901699,
        "lng":  -46.6820988,
        "found":  true
    },
    {
        "name":  "Olimpia Casa Imoveis",
        "address":  "Rua Casa do Ator, 355",
        "bairro":  "Vila Olimpia",
        "tel":  "(11) 3842-1020",
        "lat":  -23.5997142,
        "lng":  -46.6771985,
        "found":  true
    },
    {
        "name":  "Capital Brokers",
        "address":  "Rua Funchal, 418",
        "bairro":  "Vila Olimpia",
        "tel":  "(11) 3044-7000",
        "lat":  -23.5936301,
        "lng":  -46.6905142,
        "found":  true
    },
    {
        "name":  "Prime Vila Olimpia",
        "address":  "Avenida Doutor Cardoso de Melo, 1460",
        "bairro":  "Vila Olimpia",
        "tel":  "(11) 3849-3030",
        "lat":  -23.5972701,
        "lng":  -46.6874172,
        "found":  true
    },
    {
        "name":  "Mbras Luxo Vila Olimpia",
        "address":  "Avenida Brigadeiro Faria Lima, 2012",
        "bairro":  "Vila Olimpia",
        "tel":  "(11) 3034-3111",
        "lat":  -23.5749535,
        "lng":  -46.6887537,
        "found":  true
    },
    {
        "name":  "Velo Imoveis",
        "address":  "Rua Beira Rio, 45",
        "bairro":  "Vila Olimpia",
        "tel":  "(11) 3044-1515",
        "lat":  -23.5044072,
        "lng":  -46.3650097,
        "found":  true
    },
    {
        "name":  "Nova Olimpia",
        "address":  "Rua Joao Cachoeira, 1520",
        "bairro":  "Vila Olimpia",
        "tel":  "(11) 3846-9090",
        "lat":  -23.5935254,
        "lng":  -46.6750097,
        "found":  true
    },
    {
        "name":  "Refugios Urbanos Bela Vista",
        "address":  "Rua Rio de Janeiro, 358",
        "bairro":  "Bela Vista",
        "tel":  "(11) 97972-0161",
        "lat":  -23.6067819,
        "lng":  -46.777404,
        "found":  true
    },
    {
        "name":  "Cobertura 101",
        "address":  "Rua da Consolacao, 57",
        "bairro":  "Bela Vista",
        "tel":  "(11) 99313-2615",
        "lat":  -23.5480045,
        "lng":  -46.6419066,
        "found":  true
    },
    {
        "name":  "Lello Imoveis Bela Vista",
        "address":  "Avenida Paulista, 1200",
        "bairro":  "Bela Vista",
        "tel":  "(11) 3145-2000",
        "lat":  -23.5572014,
        "lng":  -46.6610391,
        "found":  true
    },
    {
        "name":  "Sh Prime Bela Vista",
        "address":  "Avenida Brigadeiro Luis Antonio, 2344",
        "bairro":  "Bela Vista",
        "tel":  "(11) 3149-5000",
        "lat":  -23.5681262,
        "lng":  -46.6496356,
        "found":  true
    },
    {
        "name":  "Lopes One Paulista",
        "address":  "Rua Augusta, 1500",
        "bairro":  "Bela Vista",
        "tel":  "(11) 3549-9000",
        "lat":  -23.5565457,
        "lng":  -46.6586475,
        "found":  true
    },
    {
        "name":  "Remax Central",
        "address":  "Rua Pamplona, 1400",
        "bairro":  "Bela Vista",
        "tel":  "(11) 3285-4000",
        "lat":  -23.5689337,
        "lng":  -46.658961,
        "found":  true
    },
    {
        "name":  "Bela Vista Imoveis",
        "address":  "Rua Treze de Maio, 1430",
        "bairro":  "Bela Vista",
        "tel":  "(11) 3284-5000",
        "lat":  -23.5658417,
        "lng":  -46.6450044,
        "found":  true
    },
    {
        "name":  "Imobiliaria Avanhandava",
        "address":  "Rua Avanhandava, 258",
        "bairro":  "Bela Vista",
        "tel":  "(11) 3255-1011",
        "lat":  -23.5504948,
        "lng":  -46.6453129,
        "found":  true
    },
    {
        "name":  "SBR Brokers",
        "address":  "Rua Frei Caneca, 558",
        "bairro":  "Bela Vista",
        "tel":  "(11) 3151-6000",
        "lat":  -23.5531841,
        "lng":  -46.653078,
        "found":  true
    },
    {
        "name":  "Bixiga Imoveis",
        "address":  "Rua Rui Barbosa, 412",
        "bairro":  "Bela Vista",
        "tel":  "(11) 3289-2020",
        "lat":  -23.5591741,
        "lng":  -46.6454072,
        "found":  true
    },
    {
        "name":  "Paulista Prime",
        "address":  "Alameda Santos, 1100",
        "bairro":  "Bela Vista",
        "tel":  "(11) 3171-8000",
        "lat":  -23.5569896,
        "lng":  -46.6634724,
        "found":  true
    },
    {
        "name":  "Get Imoveis Bela Vista",
        "address":  "Rua Sao Carlos do Pinhal, 312",
        "bairro":  "Bela Vista",
        "tel":  "(11) 3266-7070",
        "lat":  -23.564566,
        "lng":  -46.6505682,
        "found":  true
    }
]
