[
  {
    "name": "Axpe Imóveis",
    "address": "Rua Aspicuelta, 245",
    "bairro": "Pinheiros",
    "tel": "(11) 3032-1311",
    "note": "",
    "lat": -23.5569198,
    "lng": -46.6877573,
    "explored": false
  },
  {
    "name": "Madah Imóveis",
    "address": "Rua Purpurina, 131",
    "bairro": "Pinheiros",
    "tel": "(11) 3031-6885",
    "note": "",
    "lat": -23.55326,
    "lng": -46.6896395,
    "explored": false
  },
  {
    "name": "Zimbro Imóveis",
    "address": "Rua Mourato Coelho, 1261",
    "bairro": "Pinheiros",
    "tel": "(11) 3034-2122",
    "note": "",
    "lat": -23.5627352,
    "lng": -46.6881404,
    "explored": false
  },
  {
    "name": "Next Pinheiros",
    "address": "Rua Teodoro Sampaio, 2035",
    "bairro": "Pinheiros",
    "tel": "(11) 3062-8000",
    "note": "",
    "lat": -23.5627524,
    "lng": -46.6861484,
    "explored": false
  },
  {
    "name": "Sh Prime Pinheiros",
    "address": "Rua dos Pinheiros, 1140",
    "bairro": "Pinheiros",
    "tel": "(11) 3093-5500",
    "note": "",
    "lat": -23.5653913,
    "lng": -46.6822584,
    "explored": false
  },
  {
    "name": "Lopes Prime Pinheiros",
    "address": "Rua Fradique Coutinho, 1162",
    "bairro": "Pinheiros",
    "tel": "(11) 3039-8000",
    "note": "",
    "lat": -23.5638974,
    "lng": -46.6859616,
    "explored": false
  },
  {
    "name": "Remax Unique",
    "address": "Rua Cardeal Arcoverde, 1749",
    "bairro": "Pinheiros",
    "tel": "(11) 3031-0100",
    "note": "",
    "lat": -23.5616064,
    "lng": -46.6881428,
    "explored": false
  },
  {
    "name": "Lello Imóveis Pinheiros",
    "address": "Rua dos Pinheiros, 382",
    "bairro": "Pinheiros",
    "tel": "(11) 3811-1000",
    "note": "",
    "lat": -23.5651164,
    "lng": -46.6818784,
    "explored": false
  },
  {
    "name": "Coelho da Fonseca Pinheiros",
    "address": "Avenida Brigadeiro Faria Lima, 1451",
    "bairro": "Pinheiros",
    "tel": "(11) 3811-2000",
    "note": "",
    "lat": -23.5779404,
    "lng": -46.6865901,
    "explored": false
  },
  {
    "name": "Bamberg Imóveis de Elite",
    "address": "Rua Mourato Coelho, 946",
    "bairro": "Pinheiros",
    "tel": "(11) 3038-1200",
    "note": "",
    "lat": -23.5568994,
    "lng": -46.6922463,
    "explored": false
  },
  {
    "name": "Mello Imóveis Pinheiros",
    "address": "Rua Pinheiros, 642",
    "bairro": "Pinheiros",
    "tel": "(11) 3081-3311",
    "note": "",
    "lat": -23.5648,
    "lng": -46.682,
    "explored": false
  },
  {
    "name": "Pinheiros S/A",
    "address": "Rua Artur de Azevedo, 1520",
    "bairro": "Pinheiros",
    "tel": "(11) 3064-9000",
    "note": "",
    "lat": -23.5611378,
    "lng": -46.6792157,
    "explored": false
  },
  {
    "name": "Rocha Cunha Imóveis",
    "address": "Rua Vanderlei, 1555",
    "bairro": "Pompeia",
    "tel": "(11) 3675-1170",
    "note": "",
    "lat": -23.5362828,
    "lng": -46.6807886,
    "explored": false
  },
  {
    "name": "YK Private",
    "address": "Rua Venâncio Aires, 433",
    "bairro": "Pompeia",
    "tel": "(11) 5026-9329",
    "note": "",
    "lat": -23.5285262,
    "lng": -46.6819332,
    "explored": false
  },
  {
    "name": "Abrahão Imóveis",
    "address": "Rua Diana, 515",
    "bairro": "Pompeia",
    "tel": "(11) 3864-1044",
    "note": "",
    "lat": -23.5330125,
    "lng": -46.6810914,
    "explored": false
  },
  {
    "name": "Karisma Imóveis",
    "address": "Rua Vanderlei, 1493",
    "bairro": "Pompeia",
    "tel": "(11) 3675-6111",
    "note": "",
    "lat": -23.5366294,
    "lng": -46.6802738,
    "explored": false
  },
  {
    "name": "Local Imóveis Pompeia",
    "address": "Avenida Pompeia, 1289",
    "bairro": "Pompeia",
    "tel": "(11) 3868-9000",
    "note": "",
    "lat": -23.5346134,
    "lng": -46.6879262,
    "explored": false
  },
  {
    "name": "Sh Prime Pompeia",
    "address": "Avenida Pompeia, 1610",
    "bairro": "Pompeia",
    "tel": "(11) 3677-1000",
    "note": "",
    "lat": -23.5375191,
    "lng": -46.6903744,
    "explored": false
  },
  {
    "name": "Remax Liberty",
    "address": "Rua Cotoxó, 611",
    "bairro": "Pompeia",
    "tel": "(11) 3871-3333",
    "note": "",
    "lat": -23.5325241,
    "lng": -46.6848883,
    "explored": false
  },
  {
    "name": "Lello Pompeia",
    "address": "Avenida Pompeia, 1825",
    "bairro": "Pompeia",
    "tel": "(11) 3674-7000",
    "note": "",
    "lat": -23.5352324,
    "lng": -46.6883681,
    "explored": false
  },
  {
    "name": "Lopes One Pompeia",
    "address": "Avenida Pompeia, 954",
    "bairro": "Pompeia",
    "tel": "(11) 3803-7100",
    "note": "",
    "lat": -23.5325832,
    "lng": -46.6868661,
    "explored": false
  },
  {
    "name": "Imobiliária Romano",
    "address": "Rua Venâncio Aires, 850",
    "bairro": "Pompeia",
    "tel": "(11) 3672-4000",
    "note": "",
    "lat": -23.5262509,
    "lng": -46.6851671,
    "explored": false
  },
  {
    "name": "Pompeia Imóveis",
    "address": "Avenida Pompeia, 1118",
    "bairro": "Pompeia",
    "tel": "(11) 3862-2022",
    "note": "",
    "lat": -23.5338109,
    "lng": -46.6877579,
    "explored": false
  },
  {
    "name": "Nova Romano",
    "address": "Rua Desembargador do Vale, 612",
    "bairro": "Pompeia",
    "tel": "(11) 3873-1011",
    "note": "",
    "lat": -23.5307534,
    "lng": -46.6866342,
    "explored": false
  },
  {
    "name": "Sh Prime Perdizes",
    "address": "Rua Cardoso de Almeida, 1170",
    "bairro": "Perdizes",
    "tel": "(11) 3677-1010",
    "note": "",
    "lat": -23.540611,
    "lng": -46.6704169,
    "explored": false
  },
  {
    "name": "Lello Imóveis Perdizes",
    "address": "Rua Cardoso de Almeida, 921",
    "bairro": "Perdizes",
    "tel": "(11) 3874-3000",
    "note": "",
    "lat": -23.5387297,
    "lng": -46.6689623,
    "explored": false
  },
  {
    "name": "Lopes Exclusive Perdizes",
    "address": "Rua Tuim, 452",
    "bairro": "Perdizes",
    "tel": "(11) 3868-8000",
    "note": "",
    "lat": -23.541,
    "lng": -46.669,
    "explored": false
  },
  {
    "name": "Remax Gold Perdizes",
    "address": "Rua Itapicuru, 345",
    "bairro": "Perdizes",
    "tel": "(11) 3872-9000",
    "note": "",
    "lat": -23.5358453,
    "lng": -46.6675845,
    "explored": false
  },
  {
    "name": "Coelho da Fonseca Perdizes",
    "address": "Rua Cardoso de Almeida, 1500",
    "bairro": "Perdizes",
    "tel": "(11) 3670-2000",
    "note": "",
    "lat": -23.5429701,
    "lng": -46.6723314,
    "explored": false
  },
  {
    "name": "Mário Biseo Perdizes",
    "address": "Rua Turiassu, 659",
    "bairro": "Perdizes",
    "tel": "(11) 3871-9200",
    "note": "",
    "lat": -23.5330689,
    "lng": -46.6694861,
    "explored": false
  },
  {
    "name": "Graziella dos Imóveis Perdizes",
    "address": "Rua Doutor Homem de Melo, 450",
    "bairro": "Perdizes",
    "tel": "(11) 3864-5151",
    "note": "",
    "lat": -23.5366864,
    "lng": -46.6690766,
    "explored": false
  },
  {
    "name": "Perdizes Imóveis",
    "address": "Rua Bartira, 412",
    "bairro": "Perdizes",
    "tel": "(11) 3673-4040",
    "note": "",
    "lat": -23.5384087,
    "lng": -46.6720388,
    "explored": false
  },
  {
    "name": "Century 21 Perdizes",
    "address": "Rua Itapicuru, 730",
    "bairro": "Perdizes",
    "tel": "(11) 3865-8000",
    "note": "",
    "lat": -23.5337891,
    "lng": -46.6706497,
    "explored": false
  },
  {
    "name": "Imobiliária Turiassu",
    "address": "Rua Turiassu, 1143",
    "bairro": "Perdizes",
    "tel": "(11) 3672-5555",
    "note": "",
    "lat": -23.5317474,
    "lng": -46.6740219,
    "explored": false
  },
  {
    "name": "Imóveis Perdizes Alto Padrão",
    "address": "Rua Monte Alegre, 610",
    "bairro": "Perdizes",
    "tel": "(11) 3862-5000",
    "note": "",
    "lat": -23.5357582,
    "lng": -46.668613,
    "explored": false
  },
  {
    "name": "Elite Perdizes",
    "address": "Rua Capital Federal, 215",
    "bairro": "Perdizes",
    "tel": "(11) 3875-1020",
    "note": "",
    "lat": -23.5419504,
    "lng": -46.6833598,
    "explored": false
  },
  {
    "name": "Axpe Vila Madalena",
    "address": "Rua Fradique Coutinho, 1395",
    "bairro": "Vila Madalena",
    "tel": "(11) 3032-1311",
    "note": "",
    "lat": -23.5557034,
    "lng": -46.6918244,
    "explored": false
  },
  {
    "name": "Madah Imóveis Vila Madalena",
    "address": "Rua Purpurina, 131",
    "bairro": "Vila Madalena",
    "tel": "(11) 3031-6885",
    "note": "",
    "lat": -23.55326,
    "lng": -46.6896395,
    "explored": false
  },
  {
    "name": "Zimbro Vila Madalena",
    "address": "Rua Mourato Coelho, 1261",
    "bairro": "Vila Madalena",
    "tel": "(11) 3034-2122",
    "note": "",
    "lat": -23.5627352,
    "lng": -46.6881404,
    "explored": false
  },
  {
    "name": "Anglo Americana",
    "address": "Rua Pedroso Alvarenga, 1177",
    "bairro": "Vila Madalena",
    "tel": "(11) 3816-3000",
    "note": "",
    "lat": -23.5827089,
    "lng": -46.6816003,
    "explored": false
  },
  {
    "name": "Remax Destiny",
    "address": "Rua Harmonia, 810",
    "bairro": "Vila Madalena",
    "tel": "(11) 3031-5050",
    "note": "",
    "lat": -23.5521457,
    "lng": -46.6901877,
    "explored": false
  },
  {
    "name": "Lopes One Vila Madalena",
    "address": "Rua Heitor Penteado, 1420",
    "bairro": "Vila Madalena",
    "tel": "(11) 3674-8000",
    "note": "",
    "lat": -23.5458989,
    "lng": -46.6915675,
    "explored": false
  },
  {
    "name": "Sh Prime Vila Madalena",
    "address": "Rua Wisard, 415",
    "bairro": "Vila Madalena",
    "tel": "(11) 3093-5555",
    "note": "",
    "lat": -23.5553476,
    "lng": -46.6897408,
    "explored": false
  },
  {
    "name": "Lello Vila Madalena",
    "address": "Rua Harmonia, 320",
    "bairro": "Vila Madalena",
    "tel": "(11) 3811-1050",
    "note": "",
    "lat": -23.5487569,
    "lng": -46.691777,
    "explored": false
  },
  {
    "name": "Vila Madalena Imóveis Premium",
    "address": "Rua Girassol, 612",
    "bairro": "Vila Madalena",
    "tel": "(11) 3032-9000",
    "note": "",
    "lat": -23.5536728,
    "lng": -46.6903667,
    "explored": false
  },
  {
    "name": "Tarcha Imóveis",
    "address": "Rua Fradique Coutinho, 1202",
    "bairro": "Vila Madalena",
    "tel": "(11) 3815-4322",
    "note": "",
    "lat": -23.5516588,
    "lng": -46.6943828,
    "explored": false
  },
  {
    "name": "Bossa Nova Sotheby's",
    "address": "Rua Estados Unidos, 1152",
    "bairro": "Vila Madalena",
    "tel": "(11) 3061-0000",
    "note": "",
    "lat": -23.5689585,
    "lng": -46.6661315,
    "explored": false
  },
  {
    "name": "Casa Madalena",
    "address": "Rua Aspicuelta, 340",
    "bairro": "Vila Madalena",
    "tel": "(11) 3031-4040",
    "note": "",
    "lat": -23.5563954,
    "lng": -46.6874672,
    "explored": false
  },
  {
    "name": "Local Imóveis Leopoldina",
    "address": "Rua Carlos Weber, 1452",
    "bairro": "Vila Leopoldina",
    "tel": "(11) 3646-8000",
    "note": "",
    "lat": -23.5322285,
    "lng": -46.726472,
    "explored": false
  },
  {
    "name": "Sh Prime Vila Leopoldina",
    "address": "Rua Carlos Weber, 715",
    "bairro": "Vila Leopoldina",
    "tel": "(11) 3648-5000",
    "note": "",
    "lat": -23.5271913,
    "lng": -46.7311616,
    "explored": false
  },
  {
    "name": "Lello Vila Leopoldina",
    "address": "Avenida Imperatriz Leopoldina, 1120",
    "bairro": "Vila Leopoldina",
    "tel": "(11) 3643-4000",
    "note": "",
    "lat": -23.5314348,
    "lng": -46.7304651,
    "explored": false
  },
  {
    "name": "Lopes One Vila Leopoldina",
    "address": "Rua Carlos Weber, 1190",
    "bairro": "Vila Leopoldina",
    "tel": "(11) 3649-7000",
    "note": "",
    "lat": -23.5304431,
    "lng": -46.7281569,
    "explored": false
  },
  {
    "name": "Remax Japi",
    "address": "Rua Carlos Weber, 532",
    "bairro": "Vila Leopoldina",
    "tel": "(11) 3831-2000",
    "note": "",
    "lat": -23.5259467,
    "lng": -46.7323314,
    "explored": false
  },
  {
    "name": "Coelho da Fonseca Leopoldina",
    "address": "Rua Carlos Weber, 1633",
    "bairro": "Vila Leopoldina",
    "tel": "(11) 3643-2000",
    "note": "",
    "lat": -23.5334313,
    "lng": -46.7253388,
    "explored": false
  },
  {
    "name": "Leopoldina Imóveis",
    "address": "Avenida Imperatriz Leopoldina, 957",
    "bairro": "Vila Leopoldina",
    "tel": "(11) 3831-1011",
    "note": "",
    "lat": -23.5301056,
    "lng": -46.7312749,
    "explored": false
  },
  {
    "name": "Weber Imóveis",
    "address": "Rua Carlos Weber, 810",
    "bairro": "Vila Leopoldina",
    "tel": "(11) 3641-3030",
    "note": "",
    "lat": -23.5278382,
    "lng": -46.73056,
    "explored": false
  },
  {
    "name": "Mbras Imóveis Leopoldina",
    "address": "Avenida Brigadeiro Faria Lima, 2012",
    "bairro": "Vila Leopoldina",
    "tel": "(11) 3034-3111",
    "note": "",
    "lat": -23.5749535,
    "lng": -46.6887537,
    "explored": false
  },
  {
    "name": "Nova Opção Leopoldina",
    "address": "Avenida Imperatriz Leopoldina, 1222",
    "bairro": "Vila Leopoldina",
    "tel": "(11) 3645-1020",
    "note": "",
    "lat": -23.5321338,
    "lng": -46.7298106,
    "explored": false
  },
  {
    "name": "Prime Choice Leopoldina",
    "address": "Rua Clélia, 2200",
    "bairro": "Vila Leopoldina",
    "tel": "(11) 3832-4000",
    "note": "",
    "lat": -23.5247354,
    "lng": -46.7036039,
    "explored": false
  },
  {
    "name": "Direct Imóveis Leopoldina",
    "address": "Rua Schilling, 412",
    "bairro": "Vila Leopoldina",
    "tel": "(11) 3641-8080",
    "note": "",
    "lat": -23.53045,
    "lng": -46.7285146,
    "explored": false
  },
  {
    "name": "Itaim Ville",
    "address": "Rua Pedroso Alvarenga, 328",
    "bairro": "Itaim Bibi",
    "tel": "(11) 3588-0808",
    "note": "",
    "lat": -23.580564,
    "lng": -46.6737017,
    "explored": false
  },
  {
    "name": "Mello Imóveis Itaim",
    "address": "Rua Tabapuã, 627",
    "bairro": "Itaim Bibi",
    "tel": "(11) 3167-3311",
    "note": "",
    "lat": -23.5833859,
    "lng": -46.6767278,
    "explored": false
  },
  {
    "name": "Special Properties",
    "address": "Rua Joaquim Floriano, 466",
    "bairro": "Itaim Bibi",
    "tel": "(11) 3168-5000",
    "note": "",
    "lat": -23.5845652,
    "lng": -46.6745028,
    "explored": false
  },
  {
    "name": "Lopes Prime Itaim",
    "address": "Rua Joaquim Floriano, 1060",
    "bairro": "Itaim Bibi",
    "tel": "(11) 3165-8000",
    "note": "",
    "lat": -23.5860929,
    "lng": -46.6802899,
    "explored": false
  },
  {
    "name": "Sh Prime Itaim",
    "address": "Rua Tabapuã, 1125",
    "bairro": "Itaim Bibi",
    "tel": "(11) 3074-1000",
    "note": "",
    "lat": -23.5846771,
    "lng": -46.6814502,
    "explored": false
  },
  {
    "name": "Coelho da Fonseca Itaim",
    "address": "Rua Pedroso Alvarenga, 900",
    "bairro": "Itaim Bibi",
    "tel": "(11) 3160-2000",
    "note": "",
    "lat": -23.5818424,
    "lng": -46.679341,
    "explored": false
  },
  {
    "name": "Lello Imóveis Itaim",
    "address": "Rua Pedroso Alvarenga, 513",
    "bairro": "Itaim Bibi",
    "tel": "(11) 3078-3000",
    "note": "",
    "lat": -23.5810422,
    "lng": -46.6754653,
    "explored": false
  },
  {
    "name": "Remax Master",
    "address": "Rua Tabapuã, 1450",
    "bairro": "Itaim Bibi",
    "tel": "(11) 3071-2020",
    "note": "",
    "lat": -23.5855697,
    "lng": -46.6844249,
    "explored": false
  },
  {
    "name": "Graziella dos Imóveis Itaim",
    "address": "Rua Joaquim Floriano, 871",
    "bairro": "Itaim Bibi",
    "tel": "(11) 3079-5151",
    "note": "",
    "lat": -23.5835294,
    "lng": -46.6709349,
    "explored": false
  },
  {
    "name": "JLL Corporate",
    "address": "Avenida Brigadeiro Faria Lima, 3477",
    "bairro": "Itaim Bibi",
    "tel": "(11) 3043-6000",
    "note": "",
    "lat": -23.5863292,
    "lng": -46.6817127,
    "explored": false
  },
  {
    "name": "Binswanger Imóveis",
    "address": "Rua Tabapuã, 474",
    "bairro": "Itaim Bibi",
    "tel": "(11) 3073-1000",
    "note": "",
    "lat": -23.5829854,
    "lng": -46.6752575,
    "explored": false
  },
  {
    "name": "Taylor Real Estate",
    "address": "Rua Pedroso Alvarenga, 1245",
    "bairro": "Itaim Bibi",
    "tel": "(11) 3074-2200",
    "note": "",
    "lat": -23.582878,
    "lng": -46.6822273,
    "explored": false
  },
  {
    "name": "Vértiza Imóveis",
    "address": "Rua Casa do Ator, 1117",
    "bairro": "Vila Olímpia",
    "tel": "(11) 94027-7000",
    "note": "",
    "lat": -23.5966906,
    "lng": -46.6837211,
    "explored": false
  },
  {
    "name": "Sh Prime Vila Olímpia",
    "address": "Rua Olimpíadas, 200",
    "bairro": "Vila Olímpia",
    "tel": "(11) 3045-5000",
    "note": "",
    "lat": -23.5955879,
    "lng": -46.68477,
    "explored": false
  },
  {
    "name": "Lopes One Vila Olímpia",
    "address": "Rua Ramos Batista, 152",
    "bairro": "Vila Olímpia",
    "tel": "(11) 3049-9000",
    "note": "",
    "lat": -23.591985,
    "lng": -46.6845452,
    "explored": false
  },
  {
    "name": "Remax Action",
    "address": "Rua Gomes de Carvalho, 1329",
    "bairro": "Vila Olímpia",
    "tel": "(11) 3845-1010",
    "note": "",
    "lat": -23.6011325,
    "lng": -46.6765251,
    "explored": false
  },
  {
    "name": "Lello Vila Olímpia",
    "address": "Rua Alvorada, 1240",
    "bairro": "Vila Olímpia",
    "tel": "(11) 3848-2000",
    "note": "",
    "lat": -23.5961018,
    "lng": -46.6825408,
    "explored": false
  },
  {
    "name": "Coelho da Fonseca Faria Lima",
    "address": "Avenida Brigadeiro Faria Lima, 3900",
    "bairro": "Vila Olímpia",
    "tel": "(11) 3160-2000",
    "note": "",
    "lat": -23.5901699,
    "lng": -46.6820988,
    "explored": false
  },
  {
    "name": "Olímpia Casa Imóveis",
    "address": "Rua Casa do Ator, 355",
    "bairro": "Vila Olímpia",
    "tel": "(11) 3842-1020",
    "note": "",
    "lat": -23.5997142,
    "lng": -46.6771985,
    "explored": false
  },
  {
    "name": "Capital Brokers",
    "address": "Rua Funchal, 418",
    "bairro": "Vila Olímpia",
    "tel": "(11) 3044-7000",
    "note": "",
    "lat": -23.5936301,
    "lng": -46.6905142,
    "explored": false
  },
  {
    "name": "Prime Vila Olímpia",
    "address": "Avenida Doutor Cardoso de Melo, 1460",
    "bairro": "Vila Olímpia",
    "tel": "(11) 3849-3030",
    "note": "",
    "lat": -23.5972701,
    "lng": -46.6874172,
    "explored": false
  },
  {
    "name": "Mbras Luxo Vila Olímpia",
    "address": "Avenida Brigadeiro Faria Lima, 2012",
    "bairro": "Vila Olímpia",
    "tel": "(11) 3034-3111",
    "note": "",
    "lat": -23.5749535,
    "lng": -46.6887537,
    "explored": false
  },
  {
    "name": "Velo Imóveis",
    "address": "Rua Beira Rio, 45",
    "bairro": "Vila Olímpia",
    "tel": "(11) 3044-1515",
    "note": "",
    "lat": -23.5947472,
    "lng": -46.6911722,
    "explored": false
  },
  {
    "name": "Nova Olímpia",
    "address": "Rua João Cachoeira, 1520",
    "bairro": "Vila Olímpia",
    "tel": "(11) 3846-9090",
    "note": "",
    "lat": -23.5935254,
    "lng": -46.6750097,
    "explored": false
  },
  {
    "name": "Refúgios Urbanos Bela Vista",
    "address": "Rua Rio de Janeiro, 358",
    "bairro": "Bela Vista",
    "tel": "(11) 97972-0161",
    "note": "",
    "lat": -23.558,
    "lng": -46.643,
    "explored": false
  },
  {
    "name": "Cobertura 101",
    "address": "Rua da Consolação, 57",
    "bairro": "Bela Vista",
    "tel": "(11) 99313-2615",
    "note": "",
    "lat": -23.5480045,
    "lng": -46.6419066,
    "explored": false
  },
  {
    "name": "Lello Imóveis Bela Vista",
    "address": "Avenida Paulista, 1200",
    "bairro": "Bela Vista",
    "tel": "(11) 3145-2000",
    "note": "",
    "lat": -23.5572014,
    "lng": -46.6610391,
    "explored": false
  },
  {
    "name": "Sh Prime Bela Vista",
    "address": "Avenida Brigadeiro Luís Antônio, 2344",
    "bairro": "Bela Vista",
    "tel": "(11) 3149-5000",
    "note": "",
    "lat": -23.5681262,
    "lng": -46.6496356,
    "explored": false
  },
  {
    "name": "Lopes One Paulista",
    "address": "Rua Augusta, 1500",
    "bairro": "Bela Vista",
    "tel": "(11) 3549-9000",
    "note": "",
    "lat": -23.5565457,
    "lng": -46.6586475,
    "explored": false
  },
  {
    "name": "Remax Central",
    "address": "Rua Pamplona, 1400",
    "bairro": "Bela Vista",
    "tel": "(11) 3285-4000",
    "note": "",
    "lat": -23.5689337,
    "lng": -46.658961,
    "explored": false
  },
  {
    "name": "Bela Vista Imóveis",
    "address": "Rua Treze de Maio, 1430",
    "bairro": "Bela Vista",
    "tel": "(11) 3284-5000",
    "note": "",
    "lat": -23.5658417,
    "lng": -46.6450044,
    "explored": false
  },
  {
    "name": "Imobiliária Avanhandava",
    "address": "Rua Avanhandava, 258",
    "bairro": "Bela Vista",
    "tel": "(11) 3255-1011",
    "note": "",
    "lat": -23.5504948,
    "lng": -46.6453129,
    "explored": false
  },
  {
    "name": "SBR Brokers",
    "address": "Rua Frei Caneca, 558",
    "bairro": "Bela Vista",
    "tel": "(11) 3151-6000",
    "note": "",
    "lat": -23.5531841,
    "lng": -46.653078,
    "explored": false
  },
  {
    "name": "Bixiga Imóveis",
    "address": "Rua Rui Barbosa, 412",
    "bairro": "Bela Vista",
    "tel": "(11) 3289-2020",
    "note": "",
    "lat": -23.5591741,
    "lng": -46.6454072,
    "explored": false
  },
  {
    "name": "Paulista Prime",
    "address": "Alameda Santos, 1100",
    "bairro": "Bela Vista",
    "tel": "(11) 3171-8000",
    "note": "",
    "lat": -23.5569896,
    "lng": -46.6634724,
    "explored": false
  },
  {
    "name": "Get Imóveis Bela Vista",
    "address": "Rua São Carlos do Pinhal, 312",
    "bairro": "Bela Vista",
    "tel": "(11) 3266-7070",
    "note": "",
    "lat": -23.564566,
    "lng": -46.6505682,
    "explored": false
  },
  {
    "name": "Arena Ezetc Showroom",
    "address": "Av. Roque Petroni Júnior, 837",
    "bairro": "Jardim das Acácias",
    "tel": "",
    "note": "Contato com os corretores Anderson e corretora Quitéria",
    "lat": -23.6240471,
    "lng": -46.6957705,
    "explored": true
  },
  {
    "name": "Av. Roque Petroni Júnior, 409",
    "address": "Av. Roque Petroni Júnior, 409",
    "bairro": "Brooklin",
    "tel": "",
    "note": "",
    "lat": -23.6209112,
    "lng": -46.6866888,
    "explored": false
  },
  {
    "name": "Rua Roque Petrella, 243",
    "address": "Rua Roque Petrella, 243",
    "bairro": "Vila Cordeiro",
    "tel": "",
    "note": "Contato com o corretor Edson",
    "lat": -23.6257924,
    "lng": -46.6902983,
    "explored": true
  },
  {
    "name": "Dicon Imobiliária",
    "address": "Av. Brigadeiro Luís Antônio, 1300",
    "bairro": "Bela Vista",
    "tel": "",
    "note": "",
    "lat": -23.5604519,
    "lng": -46.6434896,
    "explored": true
  },
  {
    "name": "Auxiliadora Predial Paulista",
    "address": "Av. Paulista, 1009",
    "bairro": "Bela Vista",
    "tel": "",
    "note": "",
    "lat": -23.5646916,
    "lng": -46.6524691,
    "explored": true
  },
  {
    "name": "Cyrela Brazil Realty",
    "address": "Av. Paulista, 1063",
    "bairro": "Jardim Paulista",
    "tel": "",
    "note": "",
    "lat": -23.5649928,
    "lng": -46.6526796,
    "explored": true
  },
  {
    "name": "Camargo Prime",
    "address": "Av. Dr. Arnaldo, 1844",
    "bairro": "Sumaré",
    "tel": "",
    "note": "",
    "lat": -23.548778,
    "lng": -46.6807002,
    "explored": true
  },
  {
    "name": "França Prime Negócios Imobiliários",
    "address": "R. Caraíbas, 488",
    "bairro": "Perdizes",
    "tel": "",
    "note": "",
    "lat": -23.5321061,
    "lng": -46.6821612,
    "explored": true
  },
  {
    "name": "Sumaré Imóveis",
    "address": "Av. Dr. Arnaldo, 2140",
    "bairro": "Perdizes",
    "tel": "",
    "note": "",
    "lat": -23.5461049,
    "lng": -46.6816553,
    "explored": true
  },
  {
    "name": "RMF Assessoria Imobiliária",
    "address": "Av. Dr. Arnaldo, 1880",
    "bairro": "Perdizes",
    "tel": "",
    "note": "",
    "lat": -23.5484443,
    "lng": -46.6809002,
    "explored": true
  },
  {
    "name": "REMAX Target Perdizes",
    "address": "Rua Cayowaá, 1071",
    "bairro": "Perdizes",
    "tel": "",
    "note": "",
    "lat": -23.5377849,
    "lng": -46.6827144,
    "explored": true
  },
  {
    "name": "Plantão Amália de Noronha, 276",
    "address": "Rua Amália de Noronha, 276",
    "bairro": "Jardim Paulista",
    "tel": "",
    "note": "Plantão — apresentação enviada para o Rodriguez",
    "lat": -23.5749,
    "lng": -46.6618,
    "explored": true
  },
  {
    "name": "Century 21",
    "address": "Rua Oscar Freire, 530",
    "bairro": "Jardim Paulista",
    "tel": "",
    "note": "Mudou de endereço",
    "lat": -23.5637,
    "lng": -46.66,
    "explored": true
  },
  {
    "name": "Lello",
    "address": "Rua Oscar Freire, 667",
    "bairro": "Jardim Paulista",
    "tel": "",
    "note": "Falei com o corretor Eduardo — contato do diretor Felicio",
    "lat": -23.5639,
    "lng": -46.6618,
    "explored": true
  },
  {
    "name": "Plantão Oscar Freire, 1560",
    "address": "Rua Oscar Freire, 1560",
    "bairro": "Pinheiros",
    "tel": "",
    "note": "Endereço errado",
    "lat": -23.5624,
    "lng": -46.6831,
    "explored": true
  },
  {
    "name": "Oscar Freire Unlimited",
    "address": "Rua Oscar Freire, 1597",
    "bairro": "Pinheiros",
    "tel": "",
    "note": "Coworking",
    "lat": -23.5623,
    "lng": -46.6836,
    "explored": true
  },
  {
    "name": "Plantão Artur de Azevedo, 181",
    "address": "Rua Artur de Azevedo, 181",
    "bairro": "Pinheiros",
    "tel": "",
    "note": "Plantão — conversei com a Silvia, apresentação enviada (boa parceria)",
    "lat": -23.5652,
    "lng": -46.6699,
    "explored": true
  },
  {
    "name": "Plantão João Moura, 548",
    "address": "Rua João Moura, 548",
    "bairro": "Pinheiros",
    "tel": "",
    "note": "Plantão — apresentação enviada para o corretor Silvio",
    "lat": -23.562,
    "lng": -46.6795,
    "explored": true
  },
  {
    "name": "CDIA Imóveis",
    "address": "R. Fradique Coutinho, 50",
    "bairro": "Pinheiros",
    "tel": "",
    "note": "Coworking",
    "lat": -23.5669,
    "lng": -46.6736,
    "explored": true
  },
  {
    "name": "Pluri Pinheiros",
    "address": "R. Fradique Coutinho, 262",
    "bairro": "Pinheiros",
    "tel": "",
    "note": "Plantão — enviar apresentação para o contato",
    "lat": -23.5663,
    "lng": -46.6759,
    "explored": true
  },
  {
    "name": "Javier Serrano Roig Imobiliária",
    "address": "R. Fradique Coutinho, 587",
    "bairro": "Pinheiros",
    "tel": "",
    "note": "Não é imobiliária",
    "lat": -23.5654,
    "lng": -46.6796,
    "explored": true
  },
  {
    "name": "Av Portugal, 1587",
    "address": "Av Portugal, 1587",
    "bairro": "Brooklin Novo",
    "tel": "",
    "note": "Contato com o corretor Teófilo",
    "lat": -23.6209891,
    "lng": -46.6870031,
    "explored": true
  },
  {
    "name": "Avenida Chucri Zaidan, 1793",
    "address": "Avenida Chucri Zaidan, 1793",
    "bairro": "Brooklin Novo",
    "tel": "",
    "note": "Contato com a corretora Lyra",
    "lat": -23.6154385,
    "lng": -46.6967384,
    "explored": true
  },
  {
    "name": "R. Min. Nelson Hungria, 400",
    "address": "R. Min. Nelson Hungria, 400",
    "bairro": "Morumbi",
    "tel": "",
    "note": "Contato com o corretor Douglas",
    "lat": -23.6165375,
    "lng": -46.7056996,
    "explored": true
  },
  {
    "name": "Avenida Roque Petroni Junior, 305",
    "address": "Avenida Roque Petroni Junior, 305",
    "bairro": "Vila Andrade",
    "tel": "",
    "note": "Enviar direto pelo site da Lavvi",
    "lat": -23.6200076,
    "lng": -46.7014934,
    "explored": true
  },
  {
    "name": "Avenida Roque Petroni Junior, 630",
    "address": "Avenida Roque Petroni Junior, 630",
    "bairro": "Brooklin Novo",
    "tel": "",
    "note": "Enviar pelo site",
    "lat": -23.6227472,
    "lng": -46.69314,
    "explored": true
  },
  {
    "name": "Almá Pinheiros",
    "address": "Rua Alves Guimarães, 750",
    "bairro": "Jardim Paulista",
    "tel": "",
    "note": "Contato com a corretora Genilde",
    "lat": -23.5559979,
    "lng": -46.677971,
    "explored": true
  },
  {
    "name": "Naeem",
    "address": "Rua Capote Valente, 989",
    "bairro": "Jardim Paulista",
    "tel": "",
    "note": "Contato com a corretora Sabatini e corretora Cavalcante",
    "lat": -23.5536124,
    "lng": -46.6784577,
    "explored": true
  },
  {
    "name": "RFM",
    "address": "Rua Oscar Freire 900",
    "bairro": "Cerqueira César",
    "tel": "",
    "note": "Entrar em contato",
    "lat": -23.5630083,
    "lng": -46.6689877,
    "explored": false
  }
]